$GPGGA,103520.00,2236.2456317,N,11359.9344092,E,5,25,1.8,63.6153,M,0.000,M,1.000,0000*73
$GPGGA,103520.10,2236.2456577,N,11359.9346465,E,4,25,1.8,63.6353,M,0.000,M,0.100,0000*7F
$GPGGA,103520.20,2236.2456828,N,11359.9348855,E,4,25,1.8,63.5706,M,0.000,M,0.200,0000*7E
$GPGGA,103520.30,2236.2456969,N,11359.9351337,E,4,24,1.8,63.5828,M,0.000,M,0.300,0000*7F
$GPGGA,103520.40,2236.2457141,N,11359.9353860,E,4,24,1.8,63.6291,M,0.000,M,0.400,0000*7C
$GPGGA,103520.50,2236.2457096,N,11359.9356891,E,5,24,1.8,63.6844,M,0.000,M,0.500,0000*7F
$GPGGA,103520.60,2236.2457099,N,11359.9359241,E,5,25,1.8,63.6282,M,0.000,M,0.600,0000*79
$GPGGA,103520.70,2236.2457055,N,11359.9362173,E,4,25,1.8,63.6297,M,0.000,M,0.700,0000*76
$GPGGA,103520.80,2236.2456739,N,11359.9365080,E,4,25,1.8,63.7254,M,0.000,M,0.800,0000*7E
$GPGGA,103520.90,2236.2456643,N,11359.9367755,E,4,25,1.8,63.7276,M,0.000,M,0.900,0000*7F
$GPGGA,103521.00,2236.2456142,N,11359.9370619,E,4,25,1.8,63.6987,M,0.000,M,1.000,0000*72
$GPGGA,103521.10,2236.2455893,N,11359.9373485,E,5,25,1.8,63.3549,M,0.000,M,0.100,0000*7B
$GPGGA,103521.20,2236.2455431,N,11359.9376430,E,5,25,1.8,63.3413,M,0.000,M,0.200,0000*7A
$GPGGA,103521.30,2236.2454838,N,11359.9379211,E,4,25,1.8,63.6561,M,0.000,M,0.300,0000*74
$GPGGA,103521.40,2236.2454244,N,11359.9382128,E,4,25,1.8,63.6331,M,0.000,M,0.400,0000*7B
$GPGGA,103521.50,2236.2453515,N,11359.9385383,E,5,25,1.8,63.6367,M,0.000,M,0.500,0000*79
$GPGGA,103521.60,2236.2452693,N,11359.9388102,E,5,25,1.8,63.6173,M,0.000,M,0.600,0000*74
$GPGGA,103521.70,2236.2451770,N,11359.9390395,E,4,25,1.8,63.5526,M,0.000,M,0.700,0000*78
$GPGGA,103521.80,2236.2450750,N,11359.9393217,E,4,25,1.8,63.5754,M,0.000,M,0.800,0000*74
$GPGGA,103521.90,2236.2449611,N,11359.9395852,E,4,25,1.8,63.5992,M,0.000,M,0.900,0000*71
$GPGGA,103522.00,2236.2448465,N,11359.9398341,E,4,25,1.8,63.5727,M,0.000,M,1.000,0000*77
$GPGGA,103522.10,2236.2447382,N,11359.9400902,E,5,25,1.8,63.4690,M,0.000,M,0.100,0000*71
$GPGGA,103522.20,2236.2445954,N,11359.9403003,E,4,23,1.8,63.5936,M,0.000,M,0.200,0000*7C
$GPGGA,103522.30,2236.2444605,N,11359.9405179,E,4,24,1.8,63.5952,M,0.000,M,0.300,0000*79
$GPGGA,103522.40,2236.2443279,N,11359.9407141,E,5,25,1.8,63.5978,M,0.000,M,0.400,0000*70
$GPGGA,103522.50,2236.2441829,N,11359.9408945,E,5,24,1.8,63.6251,M,0.000,M,0.500,0000*7C
$GPGGA,103522.60,2236.2440321,N,11359.9410630,E,5,24,1.8,63.6066,M,0.000,M,0.600,0000*7C
$GPGGA,103522.70,2236.2438855,N,11359.9412105,E,5,24,1.8,63.5876,M,0.000,M,0.700,0000*72
$GPGGA,103522.80,2236.2437273,N,11359.9413399,E,5,23,1.8,63.6070,M,0.000,M,0.800,0000*7F
$GPGGA,103522.90,2236.2435728,N,11359.9414574,E,5,24,1.8,63.6374,M,0.000,M,0.900,0000*74
$GPGGA,103523.00,2236.2434036,N,11359.9415668,E,5,25,1.8,63.6363,M,0.000,M,1.000,0000*75
$GPGGA,103523.10,2236.2432420,N,11359.9416574,E,5,24,1.8,63.5506,M,0.000,M,0.100,0000*7B
$GPGGA,103523.20,2236.2430762,N,11359.9417127,E,4,22,1.8,63.6223,M,0.000,M,0.200,0000*7B
$GPGGA,103523.30,2236.2429053,N,11359.9417716,E,4,22,1.8,63.5682,M,0.000,M,0.300,0000*7E
$GPGGA,103523.40,2236.2427159,N,11359.9418439,E,4,24,1.8,63.5999,M,0.000,M,0.400,0000*79
$GPGGA,103523.50,2236.2425299,N,11359.9418843,E,4,24,1.8,63.5727,M,0.000,M,0.500,0000*7E
$GPGGA,103523.60,2236.2423383,N,11359.9419141,E,4,24,1.8,63.5852,M,0.000,M,0.600,0000*75
$GPGGA,103523.70,2236.2421370,N,11359.9419380,E,4,24,1.8,63.6033,M,0.000,M,0.700,0000*78
$GPGGA,103523.80,2236.2419406,N,11359.9419429,E,4,24,1.8,63.5820,M,0.000,M,0.800,0000*78
$GPGGA,103523.90,2236.2417350,N,11359.9419500,E,4,24,1.8,63.6109,M,0.000,M,0.900,0000*79
$GPGGA,103524.00,2236.2415143,N,11359.9419580,E,4,24,1.8,63.6152,M,0.000,M,1.000,0000*7B
$GPGGA,103524.10,2236.2412970,N,11359.9419583,E,4,23,1.8,63.6301,M,0.000,M,0.100,0000*75
$GPGGA,103524.20,2236.2410736,N,11359.9419472,E,4,20,1.8,63.5344,M,0.000,M,0.200,0000*75
$GPGGA,103524.30,2236.2408374,N,11359.9419391,E,4,22,1.8,63.5667,M,0.000,M,0.300,0000*72
$GPGGA,103524.40,2236.2406018,N,11359.9419317,E,4,24,1.8,63.5890,M,0.000,M,0.400,0000*7B
$GPGGA,103524.50,2236.2403458,N,11359.9419217,E,4,25,1.8,63.6049,M,0.000,M,0.500,0000*71
$GPGGA,103524.60,2236.2401031,N,11359.9419026,E,4,25,1.8,63.5820,M,0.000,M,0.600,0000*7C
$GPGGA,103524.70,2236.2398406,N,11359.9418924,E,4,25,1.8,63.6053,M,0.000,M,0.700,0000*7E
$GPGGA,103524.80,2236.2395710,N,11359.9418844,E,4,25,1.8,63.5966,M,0.000,M,0.800,0000*7C
$GPGGA,103524.90,2236.2393002,N,11359.9418818,E,4,25,1.8,63.6116,M,0.000,M,0.900,0000*7B
$GPGGA,103525.00,2236.2390228,N,11359.9418824,E,4,25,1.8,63.5949,M,0.000,M,1.000,0000*7C
$GPGGA,103525.10,2236.2387382,N,11359.9418857,E,4,25,1.8,63.5887,M,0.000,M,1.100,0000*7C
$GPGGA,103525.20,2236.2384577,N,11359.9418850,E,5,24,1.8,63.8430,M,0.000,M,1.200,0000*79
$GPGGA,103525.30,2236.2381534,N,11359.9419149,E,4,23,1.8,63.5435,M,0.000,M,1.300,0000*75
$GPGGA,103525.40,2236.2378621,N,11359.9419298,E,5,24,1.8,63.7460,M,0.000,M,1.400,0000*7F
$GPGGA,103525.50,2236.2375337,N,11359.9419641,E,4,24,1.8,63.5475,M,0.000,M,1.500,0000*77
$GPGGA,103525.60,2236.2372318,N,11359.9420032,E,4,25,1.8,63.5127,M,0.000,M,1.600,0000*76
$GPGGA,103525.70,2236.2369031,N,11359.9421080,E,4,25,1.8,63.5959,M,0.000,M,1.700,0000*7D
$GPGGA,103525.80,2236.2365804,N,11359.9421450,E,4,25,1.8,63.5629,M,0.000,M,1.800,0000*7E
$GPGGA,103525.90,2236.2362629,N,11359.9421605,E,4,25,1.8,63.4373,M,0.000,M,1.900,0000*71
$GPGGA,103526.00,2236.2359374,N,11359.9422136,E,5,25,1.8,63.4345,M,0.000,M,2.000,0000*74
$GPGGA,103526.10,2236.2356059,N,11359.9423123,E,5,25,1.8,63.4655,M,0.000,M,0.100,0000*74
$GPGGA,103526.20,2236.2352720,N,11359.9424052,E,4,25,1.8,63.5142,M,0.000,M,0.200,0000*78
$GPGGA,103526.30,2236.2349425,N,11359.9424855,E,4,23,1.8,63.4252,M,0.000,M,0.300,0000*7E
$GPGGA,103526.40,2236.2346020,N,11359.9425732,E,4,23,1.8,63.4132,M,0.000,M,0.400,0000*7A
$GPGGA,103526.50,2236.2342607,N,11359.9426730,E,5,23,1.8,63.4113,M,0.000,M,0.500,0000*7E
$GPGGA,103526.60,2236.2339287,N,11359.9427581,E,5,24,1.8,63.3507,M,0.000,M,0.600,0000*76
$GPGGA,103526.70,2236.2335867,N,11359.9428706,E,5,24,1.8,63.3633,M,0.000,M,0.700,0000*78
$GPGGA,103526.80,2236.2332415,N,11359.9430022,E,5,23,1.8,63.3791,M,0.000,M,0.800,0000*70
$GPGGA,103526.90,2236.2328972,N,11359.9431194,E,5,23,1.8,63.3760,M,0.000,M,0.900,0000*74
$GPGGA,103527.00,2236.2325738,N,11359.9432228,E,4,23,1.8,63.3477,M,0.000,M,1.000,0000*7A
$GPGGA,103527.10,2236.2322224,N,11359.9433627,E,4,23,1.8,63.2819,M,0.000,M,0.100,0000*7B
$GPGGA,103527.20,2236.2318932,N,11359.9434619,E,4,22,1.8,63.3016,M,0.000,M,0.200,0000*73
$GPGGA,103527.30,2236.2315576,N,11359.9435782,E,4,24,1.8,63.2938,M,0.000,M,0.300,0000*72
$GPGGA,103527.40,2236.2312248,N,11359.9436773,E,4,25,1.8,63.2438,M,0.000,M,0.400,0000*7E
$GPGGA,103527.50,2236.2309020,N,11359.9436300,E,4,25,1.8,62.9430,M,0.000,M,0.500,0000*7A
$GPGGA,103527.60,2236.2306012,N,11359.9437310,E,4,25,1.8,62.8454,M,0.000,M,0.600,0000*77
$GPGGA,103527.70,2236.2302890,N,11359.9438474,E,4,25,1.8,62.7808,M,0.000,M,0.700,0000*71
$GPGGA,103527.80,2236.2299564,N,11359.9439323,E,4,25,1.8,62.7838,M,0.000,M,0.800,0000*73
$GPGGA,103527.90,2236.2297774,N,11359.9440166,E,5,25,1.8,62.6802,M,0.000,M,0.900,0000*7A
$GPGGA,103528.00,2236.2292923,N,11359.9441039,E,4,24,1.8,62.6321,M,0.000,M,1.000,0000*7D
$GPGGA,103528.10,2236.2289811,N,11359.9441883,E,4,24,1.8,62.7217,M,0.000,M,0.100,0000*7A
$GPGGA,103528.20,2236.2286880,N,11359.9442484,E,4,24,1.8,62.7116,M,0.000,M,0.200,0000*77
$GPGGA,103528.30,2236.2283825,N,11359.9443091,E,4,24,1.8,62.7237,M,0.000,M,0.300,0000*7C
$GPGGA,103528.40,2236.2280973,N,11359.9443553,E,5,22,1.8,62.6286,M,0.000,M,0.400,0000*7A
$GPGGA,103528.50,2236.2277864,N,11359.9443719,E,4,22,1.8,62.7205,M,0.000,M,0.500,0000*72
$GPGGA,103528.60,2236.2274895,N,11359.9443805,E,4,23,1.8,62.7072,M,0.000,M,0.600,0000*7E
$GPGGA,103528.70,2236.2271844,N,11359.9443836,E,4,23,1.8,62.8132,M,0.000,M,0.700,0000*7D
$GPGGA,103528.80,2236.2268968,N,11359.9443757,E,4,23,1.8,62.8211,M,0.000,M,0.800,0000*70
$GPGGA,103528.90,2236.2266110,N,11359.9443514,E,4,23,1.8,62.8158,M,0.000,M,0.900,0000*72
$GPGGA,103529.00,2236.2263289,N,11359.9443216,E,4,23,1.8,62.8290,M,0.000,M,1.000,0000*76
$GPGGA,103529.10,2236.2260544,N,11359.9442626,E,4,23,1.8,62.8124,M,0.000,M,0.100,0000*78
$GPGGA,103529.20,2236.2257821,N,11359.9441880,E,4,21,1.8,62.7281,M,0.000,M,0.200,0000*72
$GPGGA,103529.30,2236.2255032,N,11359.9441321,E,4,22,1.8,62.6932,M,0.000,M,0.300,0000*7B
$GPGGA,103529.40,2236.2252212,N,11359.9440659,E,4,23,1.8,62.7126,M,0.000,M,0.400,0000*7A
$GPGGA,103529.50,2236.2249246,N,11359.9439990,E,4,23,1.8,62.7384,M,0.000,M,0.500,0000*7F
$GPGGA,103529.60,2236.2246345,N,11359.9439546,E,4,23,1.8,62.9130,M,0.000,M,0.600,0000*76
$GPGGA,103529.70,2236.2243538,N,11359.9438457,E,5,23,1.8,62.8690,M,0.000,M,0.700,0000*72
$GPGGA,103529.80,2236.2241059,N,11359.9437381,E,4,23,1.8,62.8947,M,0.000,M,0.800,0000*75
$GPGGA,103529.90,2236.2238259,N,11359.9436092,E,4,23,1.8,62.8900,M,0.000,M,0.900,0000*7A
$GPGGA,103530.00,2236.2235604,N,11359.9434768,E,4,23,1.8,62.8869,M,0.000,M,1.000,0000*7C
$GPGGA,103530.10,2236.2232891,N,11359.9433382,E,4,23,1.8,62.8773,M,0.000,M,0.100,0000*7B
$GPGGA,103530.20,2236.2230190,N,11359.9431953,E,4,22,1.8,62.8858,M,0.000,M,0.200,0000*72
$GPGGA,103530.30,2236.2227588,N,11359.9430326,E,4,23,1.8,62.9006,M,0.000,M,0.300,0000*73
$GPGGA,103530.40,2236.2226070,N,11359.9428804,E,5,24,1.8,63.0005,M,0.000,M,0.400,0000*7F
$GPGGA,103530.50,2236.2223132,N,11359.9426833,E,5,24,1.8,62.9475,M,0.000,M,0.500,0000*7C
$GPGGA,103530.60,2236.2220910,N,11359.9425032,E,5,24,1.8,63.0045,M,0.000,M,0.600,0000*72
$GPGGA,103530.70,2236.2218278,N,11359.9422947,E,5,24,1.8,62.9691,M,0.000,M,0.700,0000*77
$GPGGA,103530.80,2236.2216055,N,11359.9420998,E,5,24,1.8,62.9824,M,0.000,M,0.800,0000*74
$GPGGA,103530.90,2236.2213957,N,11359.9418888,E,5,24,1.8,63.0003,M,0.000,M,0.900,0000*74
$GPGGA,103531.00,2236.2210892,N,11359.9416372,E,5,24,1.8,62.8941,M,0.000,M,1.000,0000*79
$GPGGA,103531.10,2236.2208320,N,11359.9414196,E,4,24,1.8,62.8952,M,0.000,M,0.100,0000*7A
$GPGGA,103531.20,2236.2206455,N,11359.9412075,E,4,24,1.8,62.7799,M,0.000,M,0.200,0000*7D
$GPGGA,103531.30,2236.2204349,N,11359.9409848,E,4,24,1.8,62.6417,M,0.000,M,0.300,0000*7D
$GPGGA,103531.40,2236.2202531,N,11359.9407769,E,4,24,1.8,62.6573,M,0.000,M,0.400,0000*73
$GPGGA,103531.50,2236.2200870,N,11359.9405377,E,4,25,1.8,62.6724,M,0.000,M,0.500,0000*71
$GPGGA,103531.60,2236.2199427,N,11359.9403061,E,5,25,1.8,62.6453,M,0.000,M,0.600,0000*7C
$GPGGA,103531.70,2236.2197882,N,11359.9400504,E,4,25,1.8,62.7639,M,0.000,M,0.700,0000*7A
$GPGGA,103531.80,2236.2196669,N,11359.9397936,E,4,25,1.8,62.7907,M,0.000,M,0.800,0000*76
$GPGGA,103531.90,2236.2195487,N,11359.9395418,E,4,25,1.8,62.8112,M,0.000,M,0.900,0000*77
$GPGGA,103532.00,2236.2194442,N,11359.9392983,E,4,25,1.8,62.8432,M,0.000,M,1.000,0000*72
$GPGGA,103532.10,2236.2194468,N,11359.9390398,E,4,25,1.8,63.0483,M,0.000,M,0.100,0000*7A
$GPGGA,103532.20,2236.2193115,N,11359.9388376,E,4,25,1.8,63.1307,M,0.000,M,0.200,0000*71
$GPGGA,103532.30,2236.2193013,N,11359.9385171,E,4,25,1.8,63.0252,M,0.000,M,0.300,0000*7E
$GPGGA,103532.40,2236.2192496,N,11359.9382420,E,4,25,1.8,63.0173,M,0.000,M,0.400,0000*70
$GPGGA,103532.50,2236.2192105,N,11359.9379542,E,4,25,1.8,63.0093,M,0.000,M,0.500,0000*71
$GPGGA,103532.60,2236.2191814,N,11359.9376625,E,4,25,1.8,63.0062,M,0.000,M,0.600,0000*78
$GPGGA,103532.70,2236.2191648,N,11359.9373648,E,4,25,1.8,63.0142,M,0.000,M,0.700,0000*72
$GPGGA,103532.80,2236.2191546,N,11359.9370576,E,4,25,1.8,62.9957,M,0.000,M,0.800,0000*76
$GPGGA,103532.90,2236.2191517,N,11359.9367456,E,4,25,1.8,63.0035,M,0.000,M,0.900,0000*72
$GPGGA,103533.00,2236.2191673,N,11359.9364229,E,4,25,1.8,62.9763,M,0.000,M,1.000,0000*72
$GPGGA,103533.10,2236.2191749,N,11359.9361096,E,4,25,1.8,62.9647,M,0.000,M,0.100,0000*7F
$GPGGA,103533.20,2236.2191967,N,11359.9357770,E,4,25,1.8,62.9626,M,0.000,M,0.200,0000*70
$GPGGA,103533.30,2236.2192216,N,11359.9354496,E,4,25,1.8,62.9944,M,0.000,M,0.300,0000*7D
$GPGGA,103533.40,2236.2192588,N,11359.9351226,E,4,25,1.8,63.0403,M,0.000,M,0.400,0000*73
$GPGGA,103533.50,2236.2193020,N,11359.9347912,E,4,25,1.8,63.0470,M,0.000,M,0.500,0000*7A
$GPGGA,103533.60,2236.2193621,N,11359.9344564,E,4,25,1.8,63.0590,M,0.000,M,0.600,0000*7C
$GPGGA,103533.70,2236.2194241,N,11359.9341211,E,4,25,1.8,63.0703,M,0.000,M,0.700,0000*71
$GPGGA,103533.80,2236.2194965,N,11359.9337900,E,4,25,1.8,63.0646,M,0.000,M,0.800,0000*76
$GPGGA,103533.90,2236.2195701,N,11359.9334683,E,4,25,1.8,63.0795,M,0.000,M,0.900,0000*73
$GPGGA,103534.00,2236.2196539,N,11359.9331381,E,4,25,1.8,63.0666,M,0.000,M,1.000,0000*70
$GPGGA,103534.10,2236.2197313,N,11359.9328439,E,4,25,1.8,62.9813,M,0.000,M,0.100,0000*76
$GPGGA,103534.20,2236.2198290,N,11359.9325253,E,4,25,1.8,63.0396,M,0.000,M,0.200,0000*7A
$GPGGA,103534.30,2236.2199086,N,11359.9322359,E,4,25,1.8,63.1352,M,0.000,M,0.300,0000*7B
$GPGGA,103534.40,2236.2200237,N,11359.9319296,E,4,25,1.8,63.1231,M,0.000,M,0.400,0000*7E
$GPGGA,103534.50,2236.2201547,N,11359.9316249,E,5,25,1.8,63.0812,M,0.000,M,0.500,0000*79
$GPGGA,103534.60,2236.2202580,N,11359.9313514,E,4,25,1.8,63.1576,M,0.000,M,0.600,0000*74
$GPGGA,103534.70,2236.2203955,N,11359.9310528,E,4,25,1.8,63.1417,M,0.000,M,0.700,0000*7B
$GPGGA,103534.80,2236.2205493,N,11359.9307661,E,5,25,1.8,63.0930,M,0.000,M,0.800,0000*7A
$GPGGA,103534.90,2236.2207101,N,11359.9304801,E,5,25,1.8,63.0830,M,0.000,M,0.900,0000*7C
$GPGGA,103535.00,2236.2208744,N,11359.9302027,E,5,25,1.8,63.0829,M,0.000,M,1.000,0000*76
$GPGGA,103535.10,2236.2210331,N,11359.9299507,E,4,25,1.8,63.0869,M,0.000,M,0.100,0000*79
$GPGGA,103535.20,2236.2212269,N,11359.9296696,E,4,25,1.8,63.0511,M,0.000,M,0.200,0000*71
$GPGGA,103535.30,2236.2214309,N,11359.9294104,E,4,25,1.8,63.0703,M,0.000,M,0.300,0000*7F
$GPGGA,103535.40,2236.2216379,N,11359.9291940,E,5,25,1.8,63.2118,M,0.000,M,0.400,0000*78
$GPGGA,103535.50,2236.2218492,N,11359.9289920,E,5,25,1.8,63.3765,M,0.000,M,0.500,0000*76
$GPGGA,103535.60,2236.2220655,N,11359.9287400,E,5,25,1.8,63.3709,M,0.000,M,0.600,0000*7F
$GPGGA,103535.70,2236.2222584,N,11359.9284235,E,4,25,1.8,63.0787,M,0.000,M,0.700,0000*75
$GPGGA,103535.80,2236.2224834,N,11359.9281905,E,4,25,1.8,63.0553,M,0.000,M,0.800,0000*73
$GPGGA,103535.90,2236.2227236,N,11359.9279520,E,4,25,1.8,63.0322,M,0.000,M,0.900,0000*74
$GPGGA,103536.00,2236.2229683,N,11359.9277320,E,4,25,1.8,62.9898,M,0.000,M,1.000,0000*78
$GPGGA,103536.10,2236.2232250,N,11359.9275215,E,4,25,1.8,62.9435,M,0.000,M,0.100,0000*77
$GPGGA,103536.20,2236.2234862,N,11359.9273191,E,4,25,1.8,62.9347,M,0.000,M,0.200,0000*71
$GPGGA,103536.30,2236.2237205,N,11359.9271498,E,4,25,1.8,63.0382,M,0.000,M,0.300,0000*76
$GPGGA,103536.40,2236.2239926,N,11359.9269783,E,4,25,1.8,62.9735,M,0.000,M,0.400,0000*72
$GPGGA,103536.50,2236.2242612,N,11359.9268139,E,4,24,1.8,62.9991,M,0.000,M,0.500,0000*71
$GPGGA,103536.60,2236.2245213,N,11359.9266696,E,4,24,1.8,63.0128,M,0.000,M,0.600,0000*7D
$GPGGA,103536.70,2236.2247967,N,11359.9265287,E,4,24,1.8,63.0162,M,0.000,M,0.700,0000*7E
$GPGGA,103536.80,2236.2250634,N,11359.9264164,E,4,24,1.8,63.0518,M,0.000,M,0.800,0000*77
$GPGGA,103536.90,2236.2253380,N,11359.9262439,E,5,24,1.8,62.8243,M,0.000,M,0.900,0000*74
$GPGGA,103537.00,2236.2256159,N,11359.9261716,E,5,24,1.8,62.9166,M,0.000,M,1.000,0000*7F
$GPGGA,103537.10,2236.2259069,N,11359.9260988,E,4,24,1.8,63.0439,M,0.000,M,0.100,0000*7D
$GPGGA,103537.20,2236.2261940,N,11359.9260303,E,4,21,1.8,62.9810,M,0.000,M,0.200,0000*77
$GPGGA,103537.30,2236.2264914,N,11359.9259573,E,4,23,1.8,63.0340,M,0.000,M,0.300,0000*7C
$GPGGA,103537.40,2236.2267747,N,11359.9258959,E,4,24,1.8,63.0360,M,0.000,M,0.400,0000*77
$GPGGA,103537.50,2236.2270760,N,11359.9258462,E,4,23,1.8,63.0207,M,0.000,M,0.500,0000*76
$GPGGA,103537.60,2236.2273678,N,11359.9258051,E,4,24,1.8,63.0382,M,0.000,M,0.600,0000*72
$GPGGA,103537.70,2236.2276597,N,11359.9257774,E,5,24,1.8,63.1229,M,0.000,M,0.700,0000*7A
$GPGGA,103537.80,2236.2279637,N,11359.9257516,E,5,25,1.8,63.1251,M,0.000,M,0.800,0000*74
$GPGGA,103537.90,2236.2282562,N,11359.9257296,E,5,25,1.8,63.1826,M,0.000,M,0.900,0000*76
$GPGGA,103538.00,2236.2285742,N,11359.9256617,E,4,25,1.8,63.0941,M,0.000,M,1.000,0000*73
$GPGGA,103538.10,2236.2288711,N,11359.9256012,E,4,25,1.8,63.0016,M,0.000,M,0.100,0000*71
$GPGGA,103538.20,2236.2291873,N,11359.9255438,E,4,25,1.8,63.0636,M,0.000,M,0.200,0000*79
$GPGGA,103538.30,2236.2294998,N,11359.9254983,E,4,25,1.8,63.0379,M,0.000,M,0.300,0000*7A
$GPGGA,103538.40,2236.2297996,N,11359.9254382,E,4,25,1.8,63.0357,M,0.000,M,0.400,0000*70
$GPGGA,103538.50,2236.2301090,N,11359.9253875,E,4,25,1.8,63.0676,M,0.000,M,0.500,0000*73
$GPGGA,103538.60,2236.2304224,N,11359.9253373,E,4,25,1.8,63.0758,M,0.000,M,0.600,0000*7B
$GPGGA,103538.70,2236.2307271,N,11359.9252918,E,4,25,1.8,63.0512,M,0.000,M,0.700,0000*72
$GPGGA,103538.80,2236.2310498,N,11359.9252366,E,4,25,1.8,62.9869,M,0.000,M,0.800,0000*7F
$GPGGA,103538.90,2236.2313607,N,11359.9251929,E,4,25,1.8,63.0129,M,0.000,M,0.900,0000*7F
$GPGGA,103539.00,2236.2316689,N,11359.9251469,E,5,25,1.8,62.8920,M,0.000,M,1.000,0000*7C
$GPGGA,103539.10,2236.2319852,N,11359.9250858,E,4,25,1.8,63.0508,M,0.000,M,0.100,0000*7B
$GPGGA,103539.20,2236.2322921,N,11359.9250481,E,4,25,1.8,63.0965,M,0.000,M,0.200,0000*79
$GPGGA,103539.30,2236.2326015,N,11359.9250060,E,4,25,1.8,63.0592,M,0.000,M,0.300,0000*7C
$GPGGA,103539.40,2236.2329145,N,11359.9249629,E,4,25,1.8,63.0379,M,0.000,M,0.400,0000*77
$GPGGA,103539.50,2236.2332288,N,11359.9249195,E,4,25,1.8,63.0141,M,0.000,M,0.500,0000*76
$GPGGA,103539.60,2236.2335409,N,11359.9248842,E,4,25,1.8,63.0201,M,0.000,M,0.600,0000*7B
$GPGGA,103539.70,2236.2338458,N,11359.9248441,E,4,24,1.8,63.0195,M,0.000,M,0.700,0000*72
$GPGGA,103539.80,2236.2341634,N,11359.9248154,E,4,23,1.8,63.0450,M,0.000,M,0.800,0000*7E
$GPGGA,103539.90,2236.2344696,N,11359.9247855,E,4,24,1.8,63.0769,M,0.000,M,0.900,0000*7A
$GPGGA,103540.00,2236.2347790,N,11359.9247487,E,4,24,1.8,63.0533,M,0.000,M,1.000,0000*7F
$GPGGA,103540.10,2236.2350828,N,11359.9247321,E,4,24,1.8,63.0913,M,0.000,M,0.100,0000*71
$GPGGA,103540.20,2236.2353687,N,11359.9247220,E,4,22,1.8,63.0943,M,0.000,M,0.200,0000*7A
$GPGGA,103540.30,2236.2356963,N,11359.9246774,E,4,22,1.8,62.9711,M,0.000,M,0.300,0000*7E
$GPGGA,103540.40,2236.2360001,N,11359.9246653,E,4,24,1.8,62.9498,M,0.000,M,0.400,0000*76
$GPGGA,103540.50,2236.2362930,N,11359.9246685,E,4,24,1.8,62.9922,M,0.000,M,0.500,0000*78
$GPGGA,103540.60,2236.2366010,N,11359.9246730,E,4,24,1.8,62.9820,M,0.000,M,0.600,0000*7B
$GPGGA,103540.70,2236.2368983,N,11359.9246826,E,4,24,1.8,62.9868,M,0.000,M,0.700,0000*72
$GPGGA,103540.80,2236.2371967,N,11359.9247030,E,4,24,1.8,62.9856,M,0.000,M,0.800,0000*73
$GPGGA,103540.90,2236.2374890,N,11359.9247355,E,4,25,1.8,63.0149,M,0.000,M,0.900,0000*71
$GPGGA,103541.00,2236.2377882,N,11359.9247735,E,4,22,1.8,62.9717,M,0.000,M,1.000,0000*71
$GPGGA,103541.10,2236.2383507,N,11359.9244878,E,4,21,1.8,60.1187,M,0.000,M,0.100,0000*78
$GPGGA,103541.20,2236.2386407,N,11359.9245408,E,4,19,1.8,60.0902,M,0.000,M,0.200,0000*79
$GPGGA,103541.30,2236.2389208,N,11359.9246035,E,4,19,1.8,60.1228,M,0.000,M,0.300,0000*74
$GPGGA,103541.40,2236.2392106,N,11359.9246777,E,4,21,1.8,60.1357,M,0.000,M,0.400,0000*70
$GPGGA,103541.50,2236.2395061,N,11359.9247605,E,4,22,1.8,60.0745,M,0.000,M,0.500,0000*77
$GPGGA,103541.60,2236.2397927,N,11359.9248562,E,4,24,1.8,60.0797,M,0.000,M,0.600,0000*7A
$GPGGA,103541.70,2236.2400780,N,11359.9249454,E,4,24,1.8,60.0382,M,0.000,M,0.700,0000*75
$GPGGA,103541.80,2236.2403546,N,11359.9250567,E,4,24,1.8,60.0933,M,0.000,M,0.800,0000*77
$GPGGA,103541.90,2236.2406459,N,11359.9251809,E,4,23,1.8,60.1260,M,0.000,M,0.900,0000*72
$GPGGA,103542.00,2236.2409248,N,11359.9253019,E,4,23,1.8,60.1281,M,0.000,M,1.000,0000*7D
$GPGGA,103542.10,2236.2411985,N,11359.9254307,E,4,22,1.8,60.1610,M,0.000,M,0.100,0000*79
$GPGGA,103542.20,2236.2414746,N,11359.9255894,E,4,19,1.8,60.1630,M,0.000,M,0.200,0000*77
$GPGGA,103542.30,2236.2417553,N,11359.9257216,E,4,20,1.8,60.1350,M,0.000,M,0.300,0000*79
$GPGGA,103542.40,2236.2420409,N,11359.9258664,E,4,23,1.8,60.0652,M,0.000,M,0.400,0000*78
$GPGGA,103542.50,2236.2423190,N,11359.9260194,E,4,23,1.8,60.1986,M,0.000,M,0.500,0000*7A
$GPGGA,103542.60,2236.2425868,N,11359.9261863,E,4,23,1.8,60.1652,M,0.000,M,0.600,0000*74
$GPGGA,103542.70,2236.2428574,N,11359.9263512,E,4,23,1.8,60.2584,M,0.000,M,0.700,0000*7B
$GPGGA,103542.80,2236.2431444,N,11359.9265265,E,4,23,1.8,60.1431,M,0.000,M,0.800,0000*7C
$GPGGA,103542.90,2236.2434104,N,11359.9267037,E,4,22,1.8,60.1968,M,0.000,M,0.900,0000*7F
$GPGGA,103543.00,2236.2436991,N,11359.9269275,E,4,22,1.8,60.2068,M,0.000,M,1.000,0000*79
$GPGGA,103543.10,2236.2439602,N,11359.9271176,E,4,22,1.8,60.2602,M,0.000,M,0.100,0000*71
$GPGGA,103543.20,2236.2442379,N,11359.9273076,E,4,21,1.8,60.2508,M,0.000,M,0.200,0000*7D
$GPGGA,103543.30,2236.2445070,N,11359.9275050,E,4,21,1.8,60.2595,M,0.000,M,0.300,0000*76
$GPGGA,103543.40,2236.2447692,N,11359.9277389,E,4,22,1.8,60.3438,M,0.000,M,0.400,0000*7F
$GPGGA,103543.50,2236.2450267,N,11359.9279521,E,4,21,1.8,60.4167,M,0.000,M,0.500,0000*76
$GPGGA,103543.60,2236.2452611,N,11359.9281528,E,4,22,1.8,60.4344,M,0.000,M,0.600,0000*7F
$GPGGA,103543.70,2236.2455359,N,11359.9283869,E,4,22,1.8,60.4018,M,0.000,M,0.700,0000*71
$GPGGA,103543.80,2236.2457925,N,11359.9285984,E,4,22,1.8,60.3313,M,0.000,M,0.800,0000*79
$GPGGA,103543.90,2236.2460600,N,11359.9288342,E,4,23,1.8,60.2996,M,0.000,M,0.900,0000*7F
$GPGGA,103544.00,2236.2463165,N,11359.9290368,E,4,24,1.8,60.2126,M,0.000,M,1.000,0000*7B
$GPGGA,103544.10,2236.2465600,N,11359.9292677,E,5,24,1.8,60.2434,M,0.000,M,0.100,0000*76
$GPGGA,103544.20,2236.2468367,N,11359.9295166,E,4,23,1.8,60.1307,M,0.000,M,0.200,0000*7D
$GPGGA,103544.30,2236.2470632,N,11359.9297771,E,4,23,1.8,60.1658,M,0.000,M,0.300,0000*7C
$GPGGA,103544.40,2236.2472661,N,11359.9300312,E,5,24,1.8,60.3058,M,0.000,M,0.400,0000*74
$GPGGA,103544.50,2236.2474953,N,11359.9302806,E,4,24,1.8,60.2409,M,0.000,M,0.500,0000*70
$GPGGA,103544.60,2236.2477152,N,11359.9305215,E,4,24,1.8,60.2466,M,0.000,M,0.600,0000*7C
$GPGGA,103544.70,2236.2479268,N,11359.9307817,E,5,24,1.8,60.2610,M,0.000,M,0.700,0000*70
$GPGGA,103544.80,2236.2481316,N,11359.9310644,E,5,24,1.8,60.3167,M,0.000,M,0.800,0000*77
$GPGGA,103544.90,2236.2483344,N,11359.9313420,E,5,24,1.8,60.3200,M,0.000,M,0.900,0000*73
$GPGGA,103545.00,2236.2485285,N,11359.9315992,E,5,24,1.8,60.2942,M,0.000,M,1.000,0000*77
$GPGGA,103545.10,2236.2487058,N,11359.9318985,E,5,24,1.8,60.3599,M,0.000,M,0.100,0000*76
$GPGGA,103545.20,2236.2488795,N,11359.9321632,E,4,24,1.8,60.3020,M,0.000,M,0.200,0000*70
$GPGGA,103545.30,2236.2490448,N,11359.9324404,E,4,24,1.8,60.2885,M,0.000,M,0.300,0000*7E
$GPGGA,103545.40,2236.2491941,N,11359.9327248,E,5,24,1.8,60.3007,M,0.000,M,0.400,0000*74
$GPGGA,103545.50,2236.2493323,N,11359.9330154,E,5,24,1.8,60.3244,M,0.000,M,0.500,0000*75
$GPGGA,103545.60,2236.2494444,N,11359.9332974,E,4,24,1.8,60.2499,M,0.000,M,0.600,0000*7A
$GPGGA,103545.70,2236.2495679,N,11359.9335949,E,4,24,1.8,60.2313,M,0.000,M,0.700,0000*7B
$GPGGA,103545.80,2236.2496768,N,11359.9338835,E,4,24,1.8,60.2578,M,0.000,M,0.800,0000*75
$GPGGA,103545.90,2236.2497837,N,11359.9341719,E,5,24,1.8,60.7066,M,0.000,M,0.900,0000*70
$GPGGA,103546.00,2236.2498700,N,11359.9344596,E,4,24,1.8,60.2738,M,0.000,M,1.000,0000*7E
$GPGGA,103546.10,2236.2499424,N,11359.9347463,E,4,24,1.8,60.3123,M,0.000,M,0.100,0000*7E
$GPGGA,103546.20,2236.2500190,N,11359.9350584,E,4,24,1.8,60.2593,M,0.000,M,0.200,0000*75
$GPGGA,103546.30,2236.2500663,N,11359.9353816,E,5,24,1.8,60.3413,M,0.000,M,0.300,0000*72
$GPGGA,103546.40,2236.2501283,N,11359.9356958,E,5,24,1.8,60.3124,M,0.000,M,0.400,0000*76
$GPGGA,103546.50,2236.2501812,N,11359.9360189,E,5,24,1.8,60.3472,M,0.000,M,0.500,0000*73
$GPGGA,103546.60,2236.2502416,N,11359.9363116,E,4,24,1.8,60.2464,M,0.000,M,0.600,0000*7A
$GPGGA,103546.70,2236.2502842,N,11359.9366065,E,4,24,1.8,60.2875,M,0.000,M,0.700,0000*7B
$GPGGA,103546.80,2236.2503397,N,11359.9369357,E,4,24,1.8,60.3117,M,0.000,M,0.800,0000*78
$GPGGA,103546.90,2236.2503504,N,11359.9372711,E,4,24,1.8,60.4399,M,0.000,M,0.900,0000*7B
$GPGGA,103547.00,2236.2503664,N,11359.9375977,E,4,24,1.8,60.3812,M,0.000,M,1.000,0000*78
$GPGGA,103547.10,2236.2500883,N,11359.9382549,E,5,24,1.8,62.7519,M,0.000,M,0.100,0000*75
$GPGGA,103547.20,2236.2500987,N,11359.9385610,E,4,23,1.8,63.1318,M,0.000,M,0.200,0000*7E
$GPGGA,103547.30,2236.2500861,N,11359.9389068,E,4,24,1.8,63.1177,M,0.000,M,0.300,0000*7E
$GPGGA,103547.40,2236.2500728,N,11359.9392368,E,4,22,1.8,63.0927,M,0.000,M,0.400,0000*7F
$GPGGA,103547.50,2236.2500572,N,11359.9395671,E,5,23,1.8,63.0656,M,0.000,M,0.500,0000*71
$GPGGA,103547.60,2236.2500179,N,11359.9399145,E,5,23,1.8,63.1089,M,0.000,M,0.600,0000*77
$GPGGA,103547.70,2236.2499646,N,11359.9402337,E,4,23,1.8,63.0769,M,0.000,M,0.700,0000*76
$GPGGA,103547.80,2236.2499186,N,11359.9405593,E,4,24,1.8,63.0841,M,0.000,M,0.800,0000*70
$GPGGA,103547.90,2236.2498691,N,11359.9408831,E,4,24,1.8,63.0771,M,0.000,M,0.900,0000*74
$GPGGA,103548.00,2236.2497955,N,11359.9412069,E,4,23,1.8,63.0807,M,0.000,M,1.000,0000*75
$GPGGA,103548.10,2236.2497151,N,11359.9415230,E,4,23,1.8,63.1118,M,0.000,M,0.100,0000*77
$GPGGA,103548.20,2236.2496270,N,11359.9418389,E,4,22,1.8,63.0913,M,0.000,M,0.200,0000*7B
$GPGGA,103548.30,2236.2495329,N,11359.9421564,E,4,24,1.8,63.0910,M,0.000,M,0.300,0000*7F
$GPGGA,103548.40,2236.2494344,N,11359.9424660,E,4,24,1.8,63.0667,M,0.000,M,0.400,0000*78
$GPGGA,103548.50,2236.2493326,N,11359.9427761,E,4,25,1.8,63.0448,M,0.000,M,0.500,0000*76
$GPGGA,103548.60,2236.2492202,N,11359.9430737,E,5,24,1.8,63.0330,M,0.000,M,0.600,0000*7D
$GPGGA,103548.70,2236.2490930,N,11359.9433715,E,5,24,1.8,63.0297,M,0.000,M,0.700,0000*7A
$GPGGA,103548.80,2236.2489511,N,11359.9436878,E,4,25,1.8,63.0705,M,0.000,M,0.800,0000*72
$GPGGA,103548.90,2236.2488061,N,11359.9439775,E,4,25,1.8,63.0567,M,0.000,M,0.900,0000*7A
$GPGGA,103549.00,2236.2486610,N,11359.9442637,E,4,25,1.8,63.0720,M,0.000,M,1.000,0000*7E
$GPGGA,103549.10,2236.2485114,N,11359.9445309,E,4,25,1.8,63.1169,M,0.000,M,0.100,0000*7A
$GPGGA,103549.20,2236.2483452,N,11359.9448169,E,4,23,1.8,63.0940,M,0.000,M,0.200,0000*76
$GPGGA,103549.30,2236.2481703,N,11359.9451039,E,4,21,1.8,63.1012,M,0.000,M,0.300,0000*72
$GPGGA,103549.40,2236.2480030,N,11359.9453714,E,5,22,1.8,63.0345,M,0.000,M,0.400,0000*7C
$GPGGA,103549.50,2236.2478178,N,11359.9456379,E,5,24,1.8,63.0101,M,0.000,M,0.500,0000*78
$GPGGA,103549.60,2236.2476245,N,11359.9458834,E,5,24,1.8,63.0221,M,0.000,M,0.600,0000*76
$GPGGA,103549.70,2236.2474342,N,11359.9461279,E,5,24,1.8,62.9744,M,0.000,M,0.700,0000*75
$GPGGA,103549.80,2236.2472216,N,11359.9463673,E,5,23,1.8,63.0138,M,0.000,M,0.800,0000*7D
$GPGGA,103549.90,2236.2470179,N,11359.9465991,E,5,24,1.8,63.0289,M,0.000,M,0.900,0000*7E
$GPGGA,103550.00,2236.2468051,N,11359.9468299,E,4,24,1.8,63.0435,M,0.000,M,1.000,0000*7B
$GPGGA,103550.10,2236.2465865,N,11359.9470344,E,4,22,1.8,63.0697,M,0.000,M,0.100,0000*7C
$GPGGA,103550.20,2236.2463907,N,11359.9472138,E,4,20,1.8,63.0248,M,0.000,M,0.200,0000*70
$GPGGA,103550.30,2236.2461681,N,11359.9473893,E,4,22,1.8,63.0197,M,0.000,M,0.300,0000*79
$GPGGA,103550.40,2236.2459485,N,11359.9475624,E,4,23,1.8,63.0742,M,0.000,M,0.400,0000*7F
$GPGGA,103550.50,2236.2457436,N,11359.9476944,E,4,23,1.8,63.0530,M,0.000,M,0.500,0000*74
$GPGGA,103550.60,2236.2455411,N,11359.9478053,E,4,22,1.8,63.0272,M,0.000,M,0.600,0000*72
$GPGGA,103550.70,2236.2453214,N,11359.9479160,E,4,22,1.8,63.0791,M,0.000,M,0.700,0000*7F
$GPGGA,103550.80,2236.2451099,N,11359.9480092,E,4,23,1.8,63.0571,M,0.000,M,0.800,0000*7D
$GPGGA,103550.90,2236.2449005,N,11359.9480875,E,4,22,1.8,63.0735,M,0.000,M,0.900,0000*73
$GPGGA,103551.00,2236.2446969,N,11359.9481341,E,5,23,1.8,62.9626,M,0.000,M,1.000,0000*79
$GPGGA,103551.10,2236.2444847,N,11359.9481685,E,4,21,1.8,63.1907,M,0.000,M,0.100,0000*7C
$GPGGA,103551.20,2236.2442531,N,11359.9482191,E,4,17,1.8,63.0782,M,0.000,M,0.200,0000*70
$GPGGA,103551.30,2236.2440364,N,11359.9482423,E,4,20,1.8,63.0380,M,0.000,M,0.300,0000*7A
$GPGGA,103551.40,2236.2438192,N,11359.9482470,E,4,22,1.8,63.0130,M,0.000,M,0.400,0000*73
$GPGGA,103551.50,2236.2435968,N,11359.9482439,E,4,22,1.8,63.0022,M,0.000,M,0.500,0000*7C
$GPGGA,103551.60,2236.2433748,N,11359.9482291,E,4,22,1.8,62.9683,M,0.000,M,0.600,0000*77
$GPGGA,103551.70,2236.2431420,N,11359.9482211,E,4,22,1.8,62.9600,M,0.000,M,0.700,0000*7B
$GPGGA,103551.80,2236.2428971,N,11359.9482085,E,4,23,1.8,62.9285,M,0.000,M,0.800,0000*7D
$GPGGA,103551.90,2236.2426511,N,11359.9481890,E,4,23,1.8,62.9240,M,0.000,M,0.900,0000*7F
$GPGGA,103552.00,2236.2424017,N,11359.9481734,E,4,23,1.8,62.9249,M,0.000,M,1.000,0000*74
$GPGGA,103552.10,2236.2421347,N,11359.9481561,E,4,22,1.8,63.1288,M,0.000,M,0.100,0000*71
$GPGGA,103552.20,2236.2418562,N,11359.9481586,E,4,21,1.8,62.9100,M,0.000,M,0.200,0000*7A
$GPGGA,103552.30,2236.2415766,N,11359.9481490,E,4,23,1.8,62.9168,M,0.000,M,0.300,0000*7B
$GPGGA,103552.40,2236.2412937,N,11359.9481428,E,5,23,1.8,62.6964,M,0.000,M,0.400,0000*7F
$GPGGA,103552.50,2236.2410093,N,11359.9481341,E,5,23,1.8,62.9327,M,0.000,M,0.500,0000*70
$GPGGA,103552.60,2236.2407036,N,11359.9481477,E,5,23,1.8,62.8023,M,0.000,M,0.600,0000*7D
$GPGGA,103552.70,2236.2403853,N,11359.9481781,E,5,22,1.8,62.6592,M,0.000,M,0.700,0000*78
$GPGGA,103552.80,2236.2400807,N,11359.9481878,E,5,22,1.8,62.8143,M,0.000,M,0.800,0000*75
$GPGGA,103552.90,2236.2397554,N,11359.9482521,E,4,22,1.8,62.8965,M,0.000,M,0.900,0000*78
$GPGGA,103553.00,2236.2394334,N,11359.9482834,E,4,22,1.8,62.9500,M,0.000,M,1.000,0000*7C
$GPGGA,103553.10,2236.2391043,N,11359.9483025,E,4,22,1.8,63.0640,M,0.000,M,0.100,0000*7D
$GPGGA,103553.20,2236.2387565,N,11359.9483557,E,4,22,1.8,63.2154,M,0.000,M,0.200,0000*7B
$GPGGA,103553.30,2236.2384166,N,11359.9483664,E,4,22,1.8,63.1659,M,0.000,M,0.300,0000*75
$GPGGA,103553.40,2236.2380660,N,11359.9483816,E,4,23,1.8,63.2194,M,0.000,M,0.400,0000*7F
$GPGGA,103553.50,2236.2377647,N,11359.9484242,E,4,24,1.8,63.2269,M,0.000,M,0.500,0000*78
$GPGGA,103553.60,2236.2374210,N,11359.9484424,E,4,24,1.8,63.2223,M,0.000,M,0.600,0000*75
$GPGGA,103553.70,2236.2370972,N,11359.9484796,E,4,24,1.8,63.1721,M,0.000,M,0.700,0000*70
$GPGGA,103553.80,2236.2367370,N,11359.9485011,E,4,24,1.8,63.1639,M,0.000,M,0.800,0000*7F
$GPGGA,103553.90,2236.2363830,N,11359.9485435,E,5,24,1.8,63.1381,M,0.000,M,0.900,0000*71
$GPGGA,103554.00,2236.2360593,N,11359.9485576,E,4,24,1.8,63.0535,M,0.000,M,1.000,0000*7F
$GPGGA,103554.10,2236.2357391,N,11359.9485739,E,4,24,1.8,63.0859,M,0.000,M,0.100,0000*70
$GPGGA,103554.20,2236.2354207,N,11359.9485743,E,4,22,1.8,63.1748,M,0.000,M,0.200,0000*78
$GPGGA,103554.30,2236.2351652,N,11359.9485584,E,4,22,1.8,63.0981,M,0.000,M,0.300,0000*7A
$GPGGA,103554.40,2236.2348492,N,11359.9485672,E,4,23,1.8,63.1202,M,0.000,M,0.400,0000*76
$GPGGA,103554.50,2236.2345163,N,11359.9485878,E,4,23,1.8,63.2513,M,0.000,M,0.500,0000*70
$GPGGA,103554.60,2236.2341875,N,11359.9485899,E,4,23,1.8,63.3436,M,0.000,M,0.600,0000*72
$GPGGA,103554.70,2236.2338821,N,11359.9485806,E,4,23,1.8,63.3170,M,0.000,M,0.700,0000*7C
$GPGGA,103554.80,2236.2335617,N,11359.9485847,E,4,23,1.8,63.2995,M,0.000,M,0.800,0000*7D
$GPGGA,103554.90,2236.2332568,N,11359.9485834,E,4,24,1.8,63.2776,M,0.000,M,0.900,0000*71
$GPGGA,103555.00,2236.2329452,N,11359.9485800,E,4,24,1.8,63.2672,M,0.000,M,1.000,0000*71
$GPGGA,103555.10,2236.2326386,N,11359.9485681,E,4,24,1.8,63.2473,M,0.000,M,1.100,0000*74
$GPGGA,103555.20,2236.2323400,N,11359.9485583,E,4,24,1.8,63.2554,M,0.000,M,1.200,0000*7D
$GPGGA,103555.30,2236.2320333,N,11359.9485487,E,5,24,1.8,63.2223,M,0.000,M,1.300,0000*7A
$GPGGA,103555.40,2236.2317328,N,11359.9485344,E,5,25,1.8,63.2268,M,0.000,M,1.400,0000*72
$GPGGA,103555.50,2236.2314302,N,11359.9485174,E,5,25,1.8,63.2209,M,0.000,M,1.500,0000*7F
$GPGGA,103555.60,2236.2311288,N,11359.9484911,E,5,25,1.8,63.2242,M,0.000,M,1.600,0000*7C
$GPGGA,103555.70,2236.2308258,N,11359.9484765,E,5,25,1.8,63.2305,M,0.000,M,1.700,0000*76
$GPGGA,103555.80,2236.2305206,N,11359.9484658,E,5,25,1.8,63.2047,M,0.000,M,1.800,0000*7A
$GPGGA,103555.90,2236.2302252,N,11359.9484349,E,4,25,1.8,63.4222,M,0.000,M,1.900,0000*7F
$GPGGA,103556.00,2236.2299241,N,11359.9484143,E,4,25,1.8,63.4340,M,0.000,M,2.000,0000*73
$GPGGA,103556.10,2236.2296111,N,11359.9484026,E,4,25,1.8,63.4238,M,0.000,M,0.100,0000*74
$GPGGA,103556.20,2236.2292993,N,11359.9483718,E,4,25,1.8,63.4441,M,0.000,M,0.200,0000*77
$GPGGA,103556.30,2236.2290092,N,11359.9483539,E,5,24,1.8,63.4547,M,0.000,M,0.300,0000*7B
$GPGGA,103556.40,2236.2286952,N,11359.9483452,E,5,24,1.8,63.3520,M,0.000,M,0.400,0000*73
$GPGGA,103556.50,2236.2283931,N,11359.9483317,E,5,24,1.8,63.3975,M,0.000,M,0.500,0000*79
$GPGGA,103556.60,2236.2280787,N,11359.9483166,E,5,24,1.8,63.2346,M,0.000,M,0.600,0000*76
$GPGGA,103556.70,2236.2277778,N,11359.9482931,E,4,24,1.8,63.5019,M,0.000,M,0.700,0000*7A
$GPGGA,103556.80,2236.2274349,N,11359.9482434,E,4,24,1.8,63.6139,M,0.000,M,0.800,0000*77
$GPGGA,103556.90,2236.2271394,N,11359.9482218,E,4,25,1.8,63.5549,M,0.000,M,0.900,0000*7B
$GPGGA,103557.00,2236.2268303,N,11359.9481991,E,4,25,1.8,63.5578,M,0.000,M,1.000,0000*76
$GPGGA,103557.10,2236.2265136,N,11359.9481726,E,4,25,1.8,63.6146,M,0.000,M,0.100,0000*76
$GPGGA,103557.20,2236.2262057,N,11359.9481492,E,4,25,1.8,63.6368,M,0.000,M,0.200,0000*75
$GPGGA,103557.30,2236.2258996,N,11359.9481157,E,4,25,1.8,63.7007,M,0.000,M,0.300,0000*7F
$GPGGA,103557.40,2236.2255823,N,11359.9480824,E,4,25,1.8,63.7897,M,0.000,M,0.400,0000*70
$GPGGA,103557.50,2236.2252818,N,11359.9480342,E,4,25,1.8,63.7416,M,0.000,M,0.500,0000*71
$GPGGA,103557.60,2236.2249838,N,11359.9479918,E,4,25,1.8,63.7432,M,0.000,M,0.600,0000*7C
$GPGGA,103557.70,2236.2246914,N,11359.9479299,E,4,24,1.8,63.6545,M,0.000,M,0.700,0000*7F
$GPGGA,103557.80,2236.2243871,N,11359.9478798,E,4,24,1.8,63.6781,M,0.000,M,0.800,0000*77
$GPGGA,103557.90,2236.2240842,N,11359.9478204,E,4,24,1.8,63.6533,M,0.000,M,0.900,0000*7F
$GPGGA,103558.00,2236.2237900,N,11359.9477589,E,4,24,1.8,63.6526,M,0.000,M,1.000,0000*7F
$GPGGA,103558.10,2236.2234879,N,11359.9478171,E,4,24,1.8,64.0749,M,0.000,M,0.100,0000*74
$GPGGA,103558.20,2236.2231853,N,11359.9477292,E,4,24,1.8,64.0980,M,0.000,M,0.200,0000*73
$GPGGA,103558.30,2236.2229136,N,11359.9476538,E,4,24,1.8,64.0860,M,0.000,M,0.300,0000*79
$GPGGA,103558.40,2236.2226228,N,11359.9475681,E,5,24,1.8,64.1291,M,0.000,M,0.400,0000*7C
$GPGGA,103558.50,2236.2223336,N,11359.9474760,E,5,24,1.8,64.1329,M,0.000,M,0.500,0000*7A
$GPGGA,103558.60,2236.2220466,N,11359.9473780,E,5,24,1.8,64.1011,M,0.000,M,0.600,0000*7A
$GPGGA,103558.70,2236.2217706,N,11359.9472527,E,5,24,1.8,64.1199,M,0.000,M,0.700,0000*74
$GPGGA,103558.80,2236.2214937,N,11359.9471233,E,4,24,1.8,64.1309,M,0.000,M,0.800,0000*70
$GPGGA,103558.90,2236.2212173,N,11359.9469994,E,4,24,1.8,64.1093,M,0.000,M,0.900,0000*71
$GPGGA,103559.00,2236.2209392,N,11359.9468556,E,4,24,1.8,64.0823,M,0.000,M,1.000,0000*77
$GPGGA,103559.10,2236.2206733,N,11359.9467253,E,4,24,1.8,64.0448,M,0.000,M,0.100,0000*7A
$GPGGA,103559.20,2236.2204118,N,11359.9465500,E,4,24,1.8,64.0923,M,0.000,M,0.200,0000*74
$GPGGA,103559.30,2236.2201410,N,11359.9464119,E,5,24,1.8,64.0829,M,0.000,M,0.300,0000*7B
$GPGGA,103559.40,2236.2198830,N,11359.9462420,E,5,24,1.8,64.1020,M,0.000,M,0.400,0000*7F
$GPGGA,103559.50,2236.2196297,N,11359.9460695,E,5,24,1.8,64.0454,M,0.000,M,0.500,0000*7E
$GPGGA,103559.60,2236.2193745,N,11359.9458945,E,5,24,1.8,64.0792,M,0.000,M,0.600,0000*71
$GPGGA,103559.70,2236.2191336,N,11359.9457006,E,5,24,1.8,64.0222,M,0.000,M,0.700,0000*7C
$GPGGA,103559.80,2236.2188958,N,11359.9455093,E,5,24,1.8,64.0244,M,0.000,M,0.800,0000*78
$GPGGA,103559.90,2236.2186600,N,11359.9453162,E,5,24,1.8,64.0336,M,0.000,M,0.900,0000*79
$GPGGA,103600.00,2236.2184436,N,11359.9451119,E,5,24,1.8,64.0392,M,0.000,M,1.000,0000*72